{"visits":[{"longitude":114.16028521823965,"placeName":"香港W酒店大堂","latitude":22.30485408819378,"city":"中国香港特别行政区"},{"longitude":114.16028521823965,"placeName":"柯士甸道西, 西九龙","latitude":22.30485408819378,"city":"中国香港特别行政区"},{"longitude":114.15602663080868,"placeName":"West Kowloon Cultural District","latitude":22.29894035055339,"city":"中国香港特别行政区"},{"longitude":114.15602663080868,"placeName":"West Kowloon Cultural District","latitude":22.29894035055339,"city":"中国香港特别行政区"},{"longitude":114.1611498992196,"placeName":"柯士甸道西, 西九龙","latitude":22.30440552068408,"city":"中国香港特别行政区"},{"longitude":114.1611498992196,"placeName":"柯士甸道西, 西九龙","latitude":22.30440552068408,"city":"中国香港特别行政区"},{"longitude":114.15558772846992,"placeName":"West Kowloon Cultural District","latitude":22.29920859795284,"city":"中国香港特别行政区"},{"longitude":114.16584171204298,"placeName":"佐敦","latitude":22.305092453727454,"city":"中国香港特别行政区"},{"longitude":114.16584171204298,"placeName":"佐敦","latitude":22.305092453727454,"city":"中国香港特别行政区"},{"longitude":114.15602663080868,"placeName":"West Kowloon Cultural District","latitude":22.29894035055339,"city":"中国香港特别行政区"},{"longitude":114.16075810886812,"placeName":"园方","latitude":22.305272445112518,"city":"中国香港特别行政区"},{"longitude":114.16075810886812,"placeName":"园方","latitude":22.305272445112518,"city":"中国香港特别行政区"},{"longitude":114.16568725236343,"placeName":"佐敦","latitude":22.304219088622364,"city":"中国香港特别行政区"},{"longitude":114.16568725236343,"placeName":"佐敦","latitude":22.304219088622364,"city":"中国香港特别行政区"},{"longitude":114.02465384790048,"placeName":"深圳北","latitude":22.612169872524664,"city":"中国香港特别行政区"},{"longitude":114.02465384790048,"placeName":"深圳北","latitude":22.612169872524664,"city":"中国香港特别行政区"}]}